City_ID,City,Country,Date,Latitude,Longitude,Max Temperature,Humidity,Cloudiness,Wind Speed
0,abonnema,NG,1558378887,4.71,6.79,80.6,83,75,11.41
1,acapulco,MX,1558378854,16.86,-99.88,84.2,70,5,11.41
2,acari,BR,1558378849,-6.44,-36.64,89.34,48,100,11.99
3,adrar,DZ,1558378779,27.87,-0.29,89.6,17,40,28.86
4,agirish,RU,1558378772,61.92,63.02,32.82,88,100,9.1
5,ahipara,NZ,1558378875,-35.17,173.16,55,100,99,9.51
6,airai,TL,1558378846,-8.93,125.41,75.12,73,35,7.2
7,aitape,PG,1558378845,-3.15,142.36,77.64,87,100,3.96
8,aketi,CD,1558378804,2.74,23.78,72.6,96,100,1.03
9,aklavik,CA,1558378563,68.22,-135.01,55.4,50,75,3.09
10,akureyri,IS,1558378859,65.68,-18.09,48.2,66,90,6.93
11,albany,US,1558378727,42.65,-73.75,82.4,45,40,12.75
12,alice springs,AU,1558378836,-23.7,133.88,57.2,93,1,3.36
13,alofi,NU,1558378845,-19.06,-169.92,75.2,94,75,6.93
14,along,IN,1558378893,28.17,94.8,53.88,92,28,4.54
15,altagracia de orituco,VE,1558378882,9.86,-66.38,89.52,33,96,5.26
16,alyangula,AU,1558378858,-13.85,136.42,71.6,100,100,3.36
17,ambilobe,MG,1558378770,-13.19,49.05,74.76,92,2,4.52
18,ambon,FR,1558378758,47.55,-2.56,64.99,93,11,5.82
19,anadyr,RU,1558378821,64.73,177.51,30.2,74,75,6.71
20,anan,JP,1558378881,33.91,134.64,66.2,93,90,5.82
21,ancud,CL,1558378825,-41.87,-73.83,48.2,70,0,9.17
22,andradas,BR,1558378535,-22.07,-46.57,79,56,20,6.93
23,anqing,CN,1558378882,30.51,117.04,64.68,34,55,4.05
24,antioch,US,1558378507,38,-121.81,64.99,63,40,10.29
25,antsohihy,MG,1558378786,-14.88,47.99,80.7,74,100,5.35
26,araouane,ML,1558378769,18.9,-3.53,100.14,18,77,15.1
27,arenapolis,BR,1558378876,-14.45,-56.85,89.52,34,27,3.94
28,arman,RU,1558378760,59.7,150.17,31.56,64,0,5.3
29,arraial do cabo,BR,1558378491,-22.97,-42.02,84.2,78,0,4.7
30,arroyo,US,1558378876,41.39,-78.88,75,49,75,21.92
31,atar,MR,1558378892,20.52,-13.05,95,12,1,9.17
32,atasu,KZ,1558378884,48.68,71.64,55.32,52,100,12.21
33,atuona,PF,1558378755,-9.8,-139.03,81.96,76,78,16.49
34,auki,NG,1558378862,12.18,6.51,98.88,26,83,6.08
35,avarua,CK,1558378756,-21.21,-159.78,71.6,94,100,2.24
36,avera,US,1558378856,33.19,-82.53,91.4,40,40,9.17
37,ayan,TR,1558378761,40.67,33.6,56.94,58,76,0.54
38,aykhal,RU,1558378756,65.95,111.51,39.2,48,90,11.18
39,babati,TZ,1558378891,-4.21,35.75,55.5,97,59,6.11
40,baglung,NP,1558378768,28.27,83.59,54.24,58,11,2.66
41,balkanabat,TM,1558378846,39.51,54.36,79.8,41,99,6.69
42,bambous virieux,MU,1558378758,-20.34,57.76,78.8,74,75,11.41
43,banda aceh,ID,1558378858,5.56,95.32,84.12,76,100,11.95
44,bandarbeyla,SO,1558378822,9.49,50.81,82.68,74,67,13.38
45,banfora,BF,1558378849,10.64,-4.75,91.14,56,77,4.7
46,banjar,ID,1558378616,-7.37,108.54,73.86,98,86,1.14
47,bara,NG,1558378774,10.41,10.6,96.54,25,45,4.99
48,barrow,AR,1558378772,-38.31,-60.23,59.64,59,100,13.38
49,baruun-urt,MN,1558378847,46.68,113.28,44.88,48,0,5.32
50,bathsheba,BB,1558378792,13.22,-59.52,86,58,20,18.34
51,baylo,PH,1558378889,7.85,126.06,77,69,1,1.07
52,beisfjord,NO,1558378796,68.38,17.6,60.8,51,0,11.41
53,beja,PT,1558378766,38.02,-7.87,71.6,49,20,14.99
54,bella vista,AR,1558378771,-28.51,-59.05,75.66,80,62,7.29
55,belmonte,PT,1558378886,40.36,-7.35,63,58,60,7
56,beloha,MG,1558378762,-25.17,45.06,70.08,85,100,10
57,beringovskiy,RU,1558378791,63.05,179.32,27.42,90,58,6.2
58,betafo,MG,1558378845,-19.84,46.86,58.2,92,9,3.47
59,bethel,US,1558378760,60.79,-161.76,51.8,71,20,4.68
60,biak,ID,1558378857,-0.91,122.88,65.4,98,81,3.27
61,bilibino,RU,1558378766,68.06,166.44,27.6,89,93,6.29
62,biltine,TD,1558378853,14.53,20.93,101.76,13,93,6.87
63,birjand,IR,1558378880,32.86,59.22,71.6,26,0,9.17
64,bismarck,US,1558378843,46.81,-100.78,60.8,50,1,16.11
65,bjornevatn,NO,1558378688,69.67,29.98,37.4,93,75,20.8
66,bluff,AU,1558378790,-23.58,149.07,61.08,89,1,11.83
67,bodden town,KY,1558378836,19.28,-81.25,84.99,88,75,4.7
68,bolobo,CD,1558378889,-2.17,16.23,83.94,57,95,2.33
69,bonavista,CA,1558378895,48.65,-53.11,44.01,74,59,15.99
70,bonfim,BR,1558378888,-20.33,-44.24,82.4,39,20,8.05
71,bonito,BR,1558378893,-21.13,-56.49,84.3,49,0,7.72
72,bontang,ID,1558378765,0.12,117.47,74.22,99,54,2.62
73,bonthe,SL,1558378774,7.53,-12.5,85.38,70,63,9.78
74,boquira,BR,1558378872,-12.82,-42.73,88.62,40,20,5.1
75,bose,IT,1558378816,45.46,8.01,64.4,72,75,2.24
76,bouca,CF,1558378889,6.51,18.28,83.94,51,68,4.12
77,boyolangu,ID,1558378858,-8.09,111.9,74.76,89,80,4.65
78,brae,GB,1558378879,60.4,-1.35,51.8,87,99,4.7
79,brainerd,US,1558378527,46.36,-94.2,63,40,1,5.82
80,bredasdorp,ZA,1558378775,-34.53,20.04,55,62,0,8.05
81,buala,SB,1558378849,-8.15,159.59,81.96,79,87,10.78
82,buchach,UA,1558378822,49.06,25.39,70,100,75,2.24
83,bundaberg,AU,1558378886,-24.87,152.35,61,93,0,6.93
84,burnie,AU,1558378789,-41.05,145.91,53.01,87,76,5.99
85,burns lake,CA,1558378895,54.23,-125.76,56.4,62,66,5.21
86,busselton,AU,1558378758,-33.64,115.35,55,63,84,12.86
87,butaritari,KI,1558378767,3.07,172.79,83.94,77,55,9.13
88,byron bay,AU,1558378875,-28.65,153.62,63,93,40,4.7
89,cabo san lucas,MX,1558378605,22.89,-109.91,91,34,5,11.41
90,camacha,PT,1558378786,33.08,-16.33,68,72,40,14.99
91,cape town,ZA,1558378755,-33.93,18.42,55.99,76,20,8.05
92,carballo,ES,1558378860,43.21,-8.69,63,44,0,5.82
93,carnarvon,ZA,1558378797,-30.97,22.13,50.1,65,58,14.94
94,cartagena del chaira,CO,1558378878,1.33,-74.84,79.62,89,98,3.22
95,castro,CL,1558378756,-42.48,-73.76,48.2,70,0,9.17
96,cayenne,GF,1558378571,4.94,-52.33,86,70,40,14.99
97,champoton,MX,1558378890,19.35,-90.72,95,39,20,11.41
98,chapais,CA,1558378856,49.78,-74.86,44.6,93,90,6.93
99,charlestown,US,1558378784,41.38,-71.64,87.01,64,1,12.75
100,chauk,MM,1558378891,20.89,94.82,91.5,41,67,5.55
101,chernaya kholunitsa,RU,1558378890,58.85,51.72,42.9,52,90,5.82
102,cherskiy,RU,1558378863,68.75,161.3,24,96,100,7.16
103,chiredzi,ZW,1558378856,-21.05,31.67,65.76,42,0,0.78
104,chokurdakh,RU,1558378788,70.62,147.9,7.08,89,0,5.99
105,christchurch,NZ,1558378744,-43.53,172.64,51.01,100,1,3.36
106,chunhuhub,MX,1558378846,19.59,-88.59,96.72,35,5,7.02
107,chuy,UY,1558378776,-33.69,-53.46,65.58,91,96,13.78
108,cidreira,BR,1558378770,-30.17,-50.22,76.56,66,0,5.5
109,clinton,US,1558378556,41.84,-90.19,55.4,54,75,10.29
110,clyde river,CA,1558378787,70.47,-68.59,28.4,86,75,12.75
111,coahuayana,MX,1558378783,18.62,-100.35,100.5,22,1,4.38
112,cobija,BR,1558378828,-11.02,-68.77,89.6,55,75,3.36
113,cockburn town,TC,1558378560,21.46,-71.14,80.52,79,1,12.5
114,codrington,AU,1558378791,-28.95,153.24,60.8,93,90,5.82
115,coihaique,CL,1558378837,-45.58,-72.07,46.4,59,0,4.7
116,colonelganj,IN,1558378759,27.13,81.7,94.2,14,0,5.08
117,comodoro rivadavia,AR,1558378608,-45.87,-67.48,55.4,37,0,16.11
118,constitucion,MX,1558378757,23.99,-104.67,84.2,4,5,16.11
119,cooma,AU,1558378860,-36.24,149.13,53.6,71,11,10.29
120,coquimbo,CL,1558378792,-29.95,-71.34,64.4,59,75,5.82
121,cravo norte,CO,1558378778,6.3,-70.2,85.02,67,100,3.09
122,crotone,IT,1558378768,39.09,17.12,62.6,67,20,10.29
123,darhan,MN,1558378857,49.49,105.92,51.72,36,32,1.7
124,daru,SL,1558378857,7.99,-10.85,79.62,89,78,3.6
125,datong,CN,1558378858,40.09,113.3,55.32,23,0,9.44
126,delemont,CH,1558378890,47.36,7.34,57.2,93,75,11.41
127,denpasar,ID,1558378866,-8.65,115.22,80.6,94,20,8.05
128,deputatskiy,RU,1558378776,69.3,139.9,8.52,82,47,3.31
129,dikson,RU,1558378766,73.51,80.55,20.22,85,12,12.15
130,dingle,PH,1558378836,11,122.67,79.08,80,4,2.73
131,diu,IN,1558378873,20.71,70.98,83.04,75,0,12.82
132,doha,QA,1558378609,25.29,51.53,84.2,78,15,2.24
133,dong xoai,VN,1558378870,11.53,106.92,83.76,71,100,5.44
134,dublin,IE,1558378538,53.35,-6.26,57.99,81,75,5.82
135,dudinka,RU,1558378842,69.41,86.18,15.8,92,75,29.08
136,dunedin,NZ,1558378846,-45.87,170.5,46.99,81,1,4
137,east london,ZA,1558378775,-33.02,27.91,60.8,72,20,27.51
138,edd,ER,1558378850,13.93,41.69,93.3,49,50,9.69
139,ekimchan,RU,1558378797,53.07,132.94,43.26,87,100,10.4
140,el alto,BO,1558378857,-16.5,-68.19,57.2,19,75,14.99
141,emerald,AU,1558378770,-23.53,148.16,60.8,82,0,6.93
142,eseka,CM,1558378855,3.65,10.77,76.92,91,100,3.13
143,esperance,TT,1558378843,10.24,-61.45,91.4,46,40,18.34
144,faanui,PF,1558378775,-16.48,-151.75,82.86,74,61,11.59
145,fallon,US,1558378758,46.84,-105.12,51.8,53,90,18.34
146,faya,SA,1558378788,18.39,42.45,59,76,20,5.82
147,flinders,AU,1558378755,-34.58,150.85,60.01,62,0,11.41
148,florida,CU,1558378581,21.53,-78.23,87.8,52,40,5.82
149,forio,IT,1558378777,40.73,13.86,62.6,77,75,6.93
150,fort frances,CA,1558378834,48.61,-93.4,63,38,1,9.17
151,fort nelson,CA,1558378858,58.81,-122.69,68,42,20,5.82
152,fortuna,ES,1558378767,38.18,-1.13,69.8,77,20,4.7
153,fuxin,CN,1558378889,42.02,121.65,56.94,40,4,11.95
154,ganzhou,CN,1558378783,25.86,114.93,64.32,66,1,3.42
155,garchitorena,PH,1558378763,13.88,123.7,84.3,75,59,6.11
156,georgetown,GY,1558378612,6.8,-58.16,82.4,83,75,11.41
157,geraldton,CA,1558378869,49.72,-86.95,55.4,43,75,11.41
158,gobabis,NA,1558378567,-22.45,18.97,68,24,0,2.24
159,goderich,CA,1558378839,43.74,-81.71,52,87,96,13
160,graaff-reinet,ZA,1558378808,-32.25,24.53,60,53,19,13.87
161,grand baie,MU,1558378661,-20.02,57.58,78.8,74,75,11.41
162,griffith,AU,1558378837,-34.29,146.06,55.4,82,13,5.82
163,grindavik,IS,1558378871,63.84,-22.43,51.01,100,75,9.17
164,gunjur,GM,1558378848,13.18,-16.76,80.6,61,0,9.17
165,haines junction,CA,1558378785,60.75,-137.51,51.18,48,11,7.23
166,hakkari,FI,1558378896,61.34,23.75,69.8,46,0,5.82
167,half moon bay,US,1558378692,37.46,-122.43,62.01,67,90,9.17
168,hambantota,LK,1558378766,6.12,81.12,80.6,100,40,3.36
169,hami,CN,1558378834,42.84,93.51,69.72,11,0,6.2
170,hamilton,CA,1558378635,43.26,-79.87,59,67,90,14.99
171,hare bay,CA,1558378874,48.86,-53.99,46,64,75,17.22
172,hasaki,JP,1558378841,35.73,140.83,66.2,93,75,16.11
173,hastings,NZ,1558378877,-39.64,176.84,42.18,93,0,2.64
174,havelock,US,1558378595,34.88,-76.9,88,51,1,12.75
175,havoysund,NO,1558378784,71,24.66,39.2,80,20,24.16
176,henties bay,NA,1558378880,-22.12,14.28,59,91,0,5.99
177,hereford,GB,1558378883,52.06,-2.72,64,59,40,3.36
178,hermanus,ZA,1558378761,-34.42,19.24,55,74,9,23.78
179,high prairie,CA,1558378893,55.43,-116.48,61.8,34,0,16.46
180,high rock,BS,1558378893,26.63,-78.28,75.2,83,75,12.75
181,hilo,US,1558378755,19.71,-155.08,79,69,40,4.7
182,hirara,JP,1558378895,24.8,125.28,75.48,67,37,26.15
183,hithadhoo,MV,1558378650,-0.6,73.08,84.12,75,100,11.3
184,hobart,AU,1558378795,-42.88,147.33,57.99,66,40,5.82
185,hobyo,SO,1558378767,5.35,48.53,83.58,71,91,13.49
186,hofn,IS,1558378764,64.25,-15.21,48.2,81,90,6.93
187,horta,ES,1558378885,41.43,2.16,64.99,72,40,6.93
188,hulan ergi,CN,1558378853,47.2,123.63,48.48,85,100,15.26
189,hutang,CN,1558378793,29.22,119.85,59.1,71,4,3.31
190,ibra,OM,1558378782,22.69,58.55,87.18,41,100,17.4
191,ilulissat,GL,1558378791,69.22,-51.1,33.8,86,90,4.7
192,ingham,AU,1558378880,-18.65,146.16,64.32,97,24,3.29
193,iqaluit,CA,1558378780,63.75,-68.52,33.8,86,90,6.93
194,isangel,VU,1558378875,-19.55,169.27,74.76,76,13,20.18
195,ishigaki,JP,1558378853,24.34,124.16,76.2,73,69,24.34
196,iwanai,JP,1558378855,42.97,140.51,56.04,87,100,11.32
197,jalu,LY,1558378836,29.03,21.55,100.14,5,73,11.07
198,jamestown,AU,1558378769,-33.21,138.6,54.78,52,84,5.86
199,jiuquan,CN,1558378844,39.73,98.49,59.64,14,0,5.5
200,juiz de fora,BR,1558378833,-21.76,-43.35,75.2,44,20,8.05
201,juneau,US,1558378850,58.3,-134.42,57.2,71,75,11.41
202,kaabong,UG,1558378792,3.51,34.14,64.86,92,100,2.91
203,kaitangata,NZ,1558378789,-46.28,169.85,52,67,16,10
204,kajaani,FI,1558378827,64.22,27.73,59,62,0,6.93
205,kalabo,ZM,1558378871,-15,22.67,69.9,42,47,4.72
206,kalat,PK,1558378846,29.03,66.58,66.84,44,47,4
207,kambove,CD,1558378891,-10.88,26.6,62.52,91,15,3.36
208,kantang,TH,1558378759,7.42,99.52,78.8,94,20,6.93
209,kapaa,US,1558378773,22.08,-159.32,80.6,74,20,10.29
210,kargasok,RU,1558378862,59.06,80.87,43.08,79,82,8.63
211,kathmandu,NP,1558378762,27.71,85.32,71.6,73,75,6.67
212,katobu,ID,1558378814,-4.94,122.53,75.66,93,17,1.54
213,katsuura,JP,1558378772,33.93,134.5,66.2,93,90,5.82
214,kavieng,PG,1558378787,-2.57,150.8,82.86,75,100,3.76
215,kayseri,TR,1558378862,38.73,35.48,66.2,48,40,3.36
216,keflavik,IS,1558378788,64,-22.56,51.01,100,75,9.17
217,ketchikan,US,1558378684,55.34,-131.65,55.4,76,1,17.22
218,khash,IR,1558378844,28.22,61.21,68.28,43,32,12.5
219,khatanga,RU,1558378764,71.98,102.47,9.96,92,10,10.94
220,khor,RU,1558378768,47.88,134.96,54.96,94,100,7.36
221,kibakwe,TZ,1558378841,-6.71,36.37,69.54,74,46,5.44
222,kibaya,RW,1558378779,-2.2,30.56,66.2,88,75,3.36
223,kieta,PG,1558378871,-6.22,155.63,82.5,72,97,4.09
224,kingston,CA,1558378724,44.23,-76.48,70,63,75,19.46
225,kirkuk,IQ,1558378874,35.47,44.4,86.82,16,0,7.36
226,kizukuri,JP,1558378851,40.81,140.39,68,59,100,1.01
227,kodiak,US,1558378763,39.95,-94.76,53.01,63,1,8.05
228,kodinsk,RU,1558378758,58.6,99.18,48.84,81,14,4.97
229,kokstad,ZA,1558378831,-30.55,29.42,57.12,33,51,3.65
230,kolyvan,RU,1558378764,55.31,82.74,48.2,87,0,4.47
231,komsomolskiy,RU,1558378856,67.55,63.78,18.78,93,55,13.2
232,koronowo,PL,1558378736,53.31,17.94,71.01,60,20,3.36
233,koumac,NC,1558378775,-20.56,164.28,74.4,68,0,12.86
234,kruisfontein,ZA,1558378762,-34,24.73,55.68,69,92,16.53
235,kununurra,AU,1558378894,-15.77,128.74,82.4,58,75,6.93
236,kvarkeno,RU,1558378845,52.08,59.73,44.88,56,77,8.21
237,kyren,RU,1558378872,51.68,102.13,38.04,57,100,5.79
238,la esperanza,HN,1558378787,14.31,-88.18,87.8,62,75,4.7
239,la libertad,PE,1558378855,-16.38,-71.56,64.4,36,0,8.05
240,la ronge,CA,1558378869,55.1,-105.3,62.6,33,40,10.29
241,la seyne-sur-mer,FR,1558378897,43.1,5.88,69.01,72,0,2.24
242,labuan,BN,1558378808,5.28,115.24,80.6,88,75,5.21
243,labuhan,ID,1558378794,-2.54,115.51,75.48,86,18,2.8
244,lagoa,PT,1558378790,37.14,-8.45,73.4,46,20,18.34
245,lagos,NG,1558378870,6.46,3.39,82.4,83,20,3.36
246,lahaina,US,1558378883,20.87,-156.68,82.4,61,20,11.41
247,launceston,AU,1558378770,-41.43,147.14,55,93,40,14.99
248,lavrentiya,RU,1558378780,65.58,-170.99,28.32,95,31,6.4
249,lazaro cardenas,MX,1558378792,28.39,-105.62,88,14,75,21.92
250,le marin,MQ,1558378788,14.47,-60.87,87.8,62,75,19.46
251,le port,FR,1558378795,42.87,1.37,60.01,64,25,4.47
252,lebu,ET,1558378826,8.96,38.73,64.4,68,75,2.95
253,leh,IN,1558378857,34.16,77.58,25.8,51,33,3.58
254,leningradskiy,RU,1558378827,69.38,178.42,22.2,80,0,6.38
255,lockhart,AU,1558378821,-35.22,146.72,55.4,76,75,3.36
256,loikaw,MM,1558378892,19.67,97.21,69.18,85,100,3.4
257,lokomotivnyy,RU,1558378843,53.01,60.57,41.1,61,38,9.42
258,lokosovo,RU,1558378778,61.13,74.84,44.52,68,100,9.17
259,lompoc,US,1558378662,34.64,-120.46,66.99,63,75,12.75
260,longyearbyen,NO,1558378873,78.22,15.63,28.4,74,75,5.82
261,lorengau,PG,1558378869,-2.02,147.27,77.46,89,100,1.12
262,los teques,VE,1558378674,10.35,-67.04,87.01,66,40,3.36
263,loukhi,RU,1558378847,66.08,33.04,38.04,75,100,9.91
264,luanda,AO,1558378792,-8.83,13.24,78.8,78,20,6.93
265,lucapa,AO,1558378880,-8.42,20.74,78.36,48,65,2.73
266,luderitz,NA,1558378806,-26.65,15.16,62.6,72,39,18.34
267,lyuban,BY,1558378625,52.8,28,67.92,68,39,12.15
268,macau,BR,1558378878,-5.11,-36.64,86.1,65,70,13.85
269,mackay,CA,1558378789,53.65,-115.58,59,28,20,20.8
270,madaoua,NE,1558378892,14.07,5.96,104.1,18,71,3.36
271,madikeri,IN,1558378843,12.42,75.74,84.2,89,75,2.24
272,mahebourg,MU,1558378503,-20.41,57.7,78.8,74,75,11.41
273,mahon,IE,1558378851,51.89,-8.4,57,71,75,9.17
274,makakilo city,US,1558378845,21.35,-158.09,82.99,69,75,11.41
275,malindi,KE,1558378808,-3.22,40.12,77,88,75,9.17
276,mamakan,RU,1558378760,57.82,114.02,31.38,90,26,2.82
277,manado,ID,1558378784,1.49,124.85,73.4,100,40,4.97
278,manama,AE,1558378872,25.33,56.02,91.4,52,0,14.99
279,mandalgovi,MN,1558378890,45.76,106.27,48.66,36,0,1.34
280,mandera,ET,1558378731,3.94,41.86,87.18,47,69,8.03
281,maniitsoq,GL,1558378877,65.42,-52.9,40.02,76,1,8.08
282,manuk mangkaw,PH,1558378883,4.8,119.85,86.1,68,99,5.57
283,manzhouli,CN,1558378819,49.6,117.43,45.24,45,35,13.67
284,mar del plata,AR,1558378763,-46.43,-67.52,50.1,33,5,18.52
285,maragogi,BR,1558378610,-9.01,-35.22,83.94,69,97,9.42
286,marawi,PH,1558378796,8,124.29,77,93,12,5.01
287,margate,AU,1558378778,-43.03,147.26,57.99,66,40,5.82
288,markova,RU,1558378835,52.21,104.21,46.4,49,0,6.71
289,marzuq,YE,1558378896,14.4,46.47,79.44,36,84,6.02
290,matam,SN,1558378897,15.66,-13.26,102.12,14,1,11.61
291,mataura,NZ,1558378772,-46.19,168.86,48,88,58,1.99
292,mayor pablo lagerenza,PY,1558378761,-19.93,-60.77,91.86,33,43,14.9
293,mbigou,GA,1558378773,-1.9,11.91,72.6,94,70,1.63
294,mecca,SA,1558378872,21.43,39.83,88.62,48,1,1.74
295,medicine hat,CA,1558378863,50.04,-110.68,55.4,32,75,14.99
296,melfi,IT,1558378779,41,15.66,59,87,20,10.29
297,meulaboh,ID,1558378877,4.14,96.13,81.6,81,100,5.88
298,mikkeli,FI,1558378844,61.69,27.27,62.6,59,0,6.93
299,miraflores,CO,1558378848,5.2,-73.14,68.64,60,99,5.44
300,mizan teferi,ET,1558378888,6.99,35.58,63.42,80,59,3.06
301,mnogovershinnyy,RU,1558378793,53.94,139.92,39.12,96,100,8.05
302,mocuba,MZ,1558378804,-16.84,36.99,65.76,90,1,2.42
303,mogadishu,SO,1558378801,2.04,45.34,80.88,79,79,9.78
304,mogok,MM,1558378844,22.92,96.51,72.24,51,0,2.77
305,monrovia,LR,1558378789,6.33,-10.8,84.2,79,40,9.17
306,morant bay,JM,1558378853,17.88,-76.41,86,62,20,23.04
307,morondava,MG,1558378780,-20.3,44.28,79.08,69,0,9.06
308,moses lake,US,1558378804,47.13,-119.28,69.8,22,1,13.87
309,motygino,RU,1558378778,58.18,94.69,49.2,84,85,5.23
310,mount gambier,AU,1558378628,-37.83,140.78,53.6,100,90,8.05
311,mount isa,AU,1558378794,-20.73,139.49,68,56,0,6.93
312,muravlenko,RU,1558378887,63.79,74.5,34.98,89,28,7.83
313,murray bridge,AU,1558378827,-35.12,139.28,55.99,89,100,1.01
314,muskegon,US,1558378605,43.23,-86.25,50,70,90,12.75
315,muzhi,RU,1558378856,65.4,64.7,30.3,85,100,11.63
316,nador,MA,1558378499,35.17,-2.93,75.2,40,0,6.93
317,nago,IT,1558378863,45.88,10.89,60.01,93,40,3.36
318,nagua,DO,1558378782,19.37,-69.85,89.6,70,75,6.93
319,najran,SA,1558378772,17.54,44.22,69.8,77,75,11.41
320,namatanai,PG,1558378793,-3.66,152.44,77.46,88,100,5.95
321,namibe,AO,1558378870,-15.19,12.15,71.7,74,0,17.4
322,namioka,JP,1558378793,40.71,140.59,68,52,75,11.41
323,nanortalik,GL,1558378766,60.14,-45.24,43.08,72,29,4.68
324,nardaran,AZ,1558378782,40.56,50.01,66.2,52,40,19.46
325,narok,KE,1558378887,-1.09,35.87,56.76,91,35,6.64
326,narsaq,GL,1558378784,60.91,-46.05,57.2,28,20,9.17
327,naryan-mar,RU,1558378791,67.67,53.09,27.24,90,0,8.19
328,natchez,US,1558378892,31.56,-91.4,87.01,74,1,6.93
329,necochea,AR,1558378887,-38.55,-58.74,59,47,100,5.99
330,nelson bay,AU,1558378870,-32.72,152.14,59,93,2,3.36
331,new norfolk,AU,1558378759,-42.78,147.06,57.99,66,40,5.82
332,nikolskoye,RU,1558378770,59.7,30.79,69.01,56,20,4.47
333,nioro,GM,1558378846,13.79,-15.05,101.4,15,76,6.02
334,nome,US,1558378882,30.04,-94.42,87.8,62,40,12.75
335,norilsk,RU,1558378884,69.35,88.2,15.8,92,75,29.08
336,norman wells,CA,1558378785,65.28,-126.83,66.2,45,75,6.93
337,north bend,US,1558378869,43.41,-124.22,63,58,40,12.75
338,noumea,NC,1558378811,-22.28,166.46,64.4,77,0,2.24
339,novonukutskiy,RU,1558378861,53.7,102.71,56.04,40,96,4.81
340,novyy urgal,RU,1558378899,51.07,132.56,49.74,93,100,2.68
341,nuuk,GL,1558378889,64.17,-51.74,42.8,70,20,8.05
342,ocean city,US,1558378788,30.44,-86.61,93,66,40,13.87
343,oga,NG,1558378889,8.18,5.65,80.88,72,94,8.28
344,ogbomosho,NG,1558378873,8.13,4.25,84.66,61,97,8.72
345,okha,RU,1558378823,53.59,142.95,40.38,96,100,13.62
346,okhotsk,RU,1558378877,59.36,143.24,41.46,77,87,6.53
347,onokhoy,RU,1558378857,51.92,108.05,37.4,51,33,2.24
348,opuwo,NA,1558378523,-18.06,13.84,72.06,23,0,5.44
349,oranjestad,AW,1558378652,12.52,-70.03,87.8,62,20,25.28
350,ostrovnoy,RU,1558378754,68.05,39.51,37.5,72,2,7.16
351,paamiut,GL,1558378794,61.99,-49.67,35.7,91,7,16.31
352,pacific grove,US,1558378883,36.62,-121.92,64,77,90,4.7
353,padang,ID,1558378896,-0.92,100.36,81.24,82,100,7.65
354,pahrump,US,1558378834,36.21,-115.98,68,41,75,11.5
355,paita,PE,1558378778,-5.09,-81.11,62.6,290,0,17.22
356,palu,ID,1558378897,-0.9,119.87,78.72,80,72,3.83
357,pampierstad,ZA,1558378859,-27.78,24.69,67.02,23,0,10.38
358,pangnirtung,CA,1558378841,66.15,-65.72,35.6,80,75,18.34
359,paraiso,MX,1558378898,24.01,-104.61,84.2,4,5,16.11
360,pasni,PK,1558378823,25.26,63.48,86.82,52,0,9.17
361,perth,GB,1558378872,56.4,-3.43,59,82,20,3.36
362,pesca,CO,1558378794,5.56,-73.05,62.52,68,96,7.76
363,pevek,RU,1558378765,69.7,170.27,26.16,71,93,4.65
364,pilot butte,CA,1558378892,50.48,-104.42,59,33,40,10.29
365,pinotepa de don luis,MX,1558378888,16.43,-97.98,95.1,37,21,7.47
366,pisco,PE,1558378764,-13.71,-76.2,75.99,30,0,11.41
367,plainview,US,1558378590,34.18,-101.71,84.99,37,40,18.34
368,plattling,DE,1558378876,48.78,12.88,55.99,86,100,3.71
369,plettenberg bay,ZA,1558378886,-34.05,23.37,55.32,74,98,7.18
370,ponta do sol,BR,1558378767,-20.63,-46,73.68,57,0,5.32
371,pontes e lacerda,BR,1558378768,-15.23,-59.33,88.44,41,41,3.71
372,port alfred,ZA,1558378763,-33.59,26.89,61,69,67,8.01
373,port blair,IN,1558378774,11.67,92.75,85.2,71,99,7.18
374,port elizabeth,US,1558378762,39.31,-74.98,93,46,20,12.75
375,port hardy,CA,1558378564,50.7,-127.42,53.6,87,90,5.82
376,port hedland,AU,1558378791,-20.31,118.58,62.6,51,0,6.93
377,port lincoln,AU,1558378826,-34.72,135.86,63.6,76,100,15.48
378,port shepstone,ZA,1558378854,-30.74,30.45,69.54,47,2,5.32
379,port-gentil,GA,1558378833,-0.72,8.78,80.6,88,20,11.41
380,porto novo,BR,1558378783,-23.68,-45.44,77,53,20,4.7
381,poum,MK,1558378885,41.28,20.71,53.6,71,75,5.82
382,prainha,BR,1558378652,-1.8,-53.48,86.1,69,100,4.14
383,provideniya,RU,1558378816,64.42,-173.23,33.72,72,5,5.23
384,puerto ayora,EC,1558378762,-0.74,-90.35,79,86,26,5.99
385,puerto escondido,MX,1558378824,15.86,-97.07,86,66,5,9.17
386,punta arenas,CL,1558378759,-53.16,-70.91,50,61,40,46.08
387,pushkinskiye gory,RU,1558378756,57.02,28.91,65.04,70,6,6.93
388,qaanaaq,GL,1558378755,77.48,-69.36,22.2,73,25,2.37
389,qasigiannguit,GL,1558378767,68.82,-51.19,33.8,86,90,4.7
390,qingdao,CN,1558378760,36.09,120.35,59,54,0,2.24
391,qinhuangdao,CN,1558378861,39.94,119.59,57.48,40,0,8.41
392,quanzhou,CN,1558378863,24.9,118.59,69.8,88,35,6.71
393,rabo de peixe,PT,1558378839,37.8,-25.58,66.2,88,40,12.75
394,raduzhnyy,RU,1558378853,62.1,77.47,39.3,93,100,9.86
395,raglan,NZ,1558378769,-37.8,174.87,48.99,53,99,1.99
396,raudeberg,NO,1558378894,61.99,5.14,69.8,76,20,4.7
397,raymond,US,1558378580,43.04,-71.18,84.99,48,40,12.75
398,reguengos de monsaraz,PT,1558378861,38.42,-7.53,71.6,49,20,14.99
399,ribeira grande,PT,1558378794,38.52,-28.7,66.2,88,40,10.29
400,rikitea,PF,1558378669,-23.12,-134.97,74.58,76,95,12.82
401,rio gallegos,AR,1558378754,-51.62,-69.22,53.6,40,0,34.45
402,road town,VG,1558378828,18.42,-64.62,86,66,40,9.17
403,rocha,UY,1558378828,-34.48,-54.34,61.08,96,97,11.3
404,rosita,NI,1558378762,13.92,-84.4,84.12,71,72,4.41
405,russell,AR,1558378895,-33.01,-68.8,50,71,75,12.75
406,russkaya polyana,RU,1558378777,53.78,73.88,45.24,80,100,6.76
407,russkiy aktash,RU,1558378880,55.04,52.12,41,80,20,11.18
408,saint anthony,US,1558378893,43.97,-111.68,45,81,90,3.36
409,saint george,GR,1558378768,39.45,22.34,75.2,33,40,11.41
410,saint-denis,FR,1558378797,48.94,2.36,64.4,67,0,10.29
411,saint-georges,CA,1558378595,46.12,-70.67,71.01,76,94,8.99
412,saint-joseph,FR,1558378875,43.56,6.97,64,93,75,3.36
413,saint-leu,RE,1558378835,-21.15,55.28,78.01,88,68,3.36
414,saint-philippe,CA,1558378785,45.36,-73.48,75,53,75,29.97
415,salalah,OM,1558378796,17.01,54.1,86,74,20,10.29
416,saldanha,PT,1558378840,41.42,-6.55,63.06,46,86,9.75
417,salinopolis,BR,1558378846,-0.61,-47.36,82.14,82,90,12.57
418,samana,EC,1558378796,0.12,-76.97,77,94,75,4.7
419,samarinda,ID,1558378886,-0.5,117.14,75.3,98,52,2.08
420,sambava,MG,1558378871,-14.27,50.17,70.98,99,7,1.5
421,san andres,PH,1558378815,13.32,122.68,81.78,82,58,2.89
422,san cristobal,EC,1558378885,-0.39,-78.55,71.6,37,75,4.7
423,san felipe,CL,1558378777,-32.75,-70.73,51.01,95,37,1.01
424,san juan del sur,NI,1558378808,11.25,-85.87,84.2,74,40,10.2
425,san patricio,PY,1558378853,-26.98,-56.83,76.74,82,94,7.49
426,san pedro,AR,1558378735,-33.68,-59.66,63,69,100,7
427,san quintin,PH,1558378841,17.54,120.52,78.72,76,95,3.62
428,san rafael del sur,NI,1558378793,11.85,-86.44,91.4,49,40,13.87
429,san ramon,NI,1558378828,12.92,-85.84,77,65,75,5.55
430,san ramon de la nueva oran,AR,1558378883,-23.13,-64.33,63.42,97,100,2.13
431,sanchazi,CN,1558378781,30.43,103.62,64.4,82,0,2.24
432,san-pedro,CI,1558378888,4.75,-6.64,78.9,89,92,3.56
433,santa ines,EC,1558378840,-0.82,-78.63,64.4,72,75,2.93
434,santa maria,BR,1558378868,-29.69,-53.81,71.16,85,99,5.95
435,santa rosa,AR,1558378839,-36.62,-64.29,49.38,78,100,13.94
436,sao felix do xingu,BR,1558378837,-6.64,-51.99,80.34,92,100,3.74
437,sao filipe,CV,1558378776,14.9,-24.5,72.96,84,2,16.91
438,sao joao da barra,BR,1558378785,-21.64,-41.05,86,55,40,3.36
439,sarai mir,IN,1558378781,26.02,82.92,86,35,0,3.36
440,saskylakh,RU,1558378757,71.97,114.09,4.92,91,0,2.26
441,sault sainte marie,CA,1558378765,46.49,-84.36,50,61,1,14.99
442,sawtell,AU,1558378885,-30.38,153.1,57.2,93,90,3.36
443,seoul,KR,1558378758,37.57,126.98,55.4,93,1,4.7
444,seshcha,RU,1558378884,53.73,33.34,61.62,72,1,6.11
445,severo-kurilsk,RU,1558378793,50.68,156.12,39.66,97,99,15.1
446,sfantu gheorghe,RO,1558378860,44.65,26.83,66.2,93,40,10.29
447,shalinskoye,RU,1558378772,55.72,93.76,53.7,63,66,7.83
448,shebalino,RU,1558378873,51.29,85.68,53.52,68,100,7.29
449,shimoda,JP,1558378860,34.7,138.93,68,100,75,11.41
450,sidney,US,1558378850,47.72,-104.16,61,26,1,14.99
451,sinnamary,GF,1558378783,5.38,-52.96,82.5,81,100,10.96
452,sioux lookout,CA,1558378879,50.1,-91.92,59,44,40,6.93
453,sitka,US,1558378776,37.17,-99.65,48.99,98,100,11.99
454,slave lake,CA,1558378673,55.28,-114.77,62.6,25,1,17.22
455,sorland,NO,1558378858,67.67,12.69,53.6,71,0,5.82
456,sorong,ID,1558378773,-0.86,131.25,77.28,93,95,2.01
457,souillac,FR,1558378869,45.6,-0.6,62.6,59,1,11.41
458,soyo,AO,1558378792,-6.13,12.37,80.6,88,20,9.17
459,straumen,NO,1558378786,63.87,11.3,68,52,0,9.17
460,sur,OM,1558378769,22.57,59.53,88.26,57,66,14.83
461,susuman,RU,1558378875,62.78,148.15,22.38,75,0,3.15
462,svodin,SK,1558378878,47.91,18.5,63,72,0,6.93
463,synya,RU,1558378882,65.37,58.04,32.28,68,29,8.55
464,syumsi,RU,1558378847,57.11,51.61,43.08,66,90,6.91
465,tabas,IR,1558378798,33.6,56.92,89.6,18,100,9.17
466,tabou,CI,1558378874,4.42,-7.36,80.88,82,84,4.9
467,tagusao,PH,1558378828,9.19,117.81,84.12,71,92,2.57
468,takoradi,GH,1558378843,4.89,-1.75,78.9,85,100,3.56
469,talcahuano,CL,1558378827,-36.72,-73.12,55.4,66,40,6.93
470,talmenka,RU,1558378897,53.82,83.56,51.8,76,40,11.18
471,talnakh,RU,1558378783,69.49,88.39,15.8,92,75,29.08
472,tam ky,VN,1558378884,15.57,108.48,82.4,78,20,4.7
473,tamworth,AU,1558378897,-31.09,150.93,44.6,87,64,5.82
474,tarauaca,BR,1558378771,-8.16,-70.77,90.06,47,48,1.43
475,tasiilaq,GL,1558378788,65.61,-37.64,35.6,74,75,12.75
476,tautira,PF,1558378854,-17.73,-149.15,84.2,70,20,10.29
477,taybad,IR,1558378763,34.74,60.78,80.16,18,78,4.88
478,te anau,NZ,1558378834,-45.41,167.72,39.3,93,61,4.12
479,teknaf,BD,1558378758,20.86,92.31,84.66,85,1,8.23
480,ternate,PH,1558378770,14.29,120.72,86,74,20,1.12
481,teya,MX,1558378786,21.05,-89.07,99,39,75,16.11
482,thanatpin,MM,1558378882,17.29,96.58,82.4,83,75,4.7
483,thayetmyo,MM,1558378854,19.32,95.18,88.26,61,81,7.07
484,thinadhoo,MV,1558378775,0.53,72.93,85.02,76,100,17
485,thompson,CA,1558378765,55.74,-97.86,57.2,35,75,3.36
486,tiarei,PF,1558378764,-17.53,-149.33,84.2,70,20,10.29
487,tigil,RU,1558378856,57.8,158.67,36.6,92,33,4.59
488,tiksi,RU,1558378756,71.64,128.87,14.1,88,95,15.7
489,tilichiki,RU,1558378881,60.47,166.1,33.9,87,99,4.41
490,tocopilla,CL,1558378876,-22.09,-70.2,61.8,94,79,17.07
491,tomatlan,MX,1558378894,19.93,-105.25,84.66,59,0,7.9
492,tongren,CN,1558378899,27.72,109.18,55.86,64,4,2.84
493,torbay,CA,1558378627,47.66,-52.73,48,65,75,24.16
494,touros,BR,1558378891,-5.2,-35.46,84.12,75,52,15.88
495,trapani,IT,1558378785,38.02,12.54,66.2,72,20,17.22
496,trat,TH,1558378784,12.25,102.51,91,70,93,1.88
497,traverse city,US,1558378672,44.76,-85.62,54,62,75,14.99
498,tshikapa,CD,1558378849,-6.42,20.79,79.62,58,99,2.15
499,tuatapere,NZ,1558378871,-46.13,167.69,48,88,71,1.99
500,tuktoyaktuk,CA,1558378823,69.44,-133.03,41,75,40,19.46
501,tutoia,BR,1558378891,-2.76,-42.27,86,79,75,6.93
502,udachnyy,RU,1558378789,66.42,112.4,39.2,48,90,11.18
503,ulladulla,AU,1558378859,-35.36,150.48,60.01,62,0,11.41
504,umtata,ZA,1558378835,-31.59,28.78,60.8,51,0,17.22
505,union,US,1558378842,47.36,-123.1,57.2,100,90,8.05
506,upernavik,GL,1558378846,72.79,-56.15,29.22,85,0,11.59
507,ushuaia,AR,1558378606,-54.81,-68.31,44.6,75,75,36.91
508,ust-barguzin,RU,1558378859,53.41,109.03,36.06,60,27,2.42
509,ust-tsilma,RU,1558378796,65.44,52.15,35.88,58,0,6.11
510,vaini,IN,1558378780,15.34,74.49,78.9,88,0,1.59
511,valenca do piaui,BR,1558378892,-6.41,-41.75,84.66,67,58,5.37
512,varhaug,NO,1558378761,58.61,5.65,64.99,63,0,8.05
513,veraval,FR,1558378898,49.65,0.71,61,62,0,8.05
514,victoria,BN,1558378812,5.28,115.24,80.6,88,75,5.21
515,viedma,AR,1558378894,-40.81,-62.99,58.56,41,14,10.98
516,vila do maio,CV,1558378879,15.13,-23.22,80.6,54,20,13.87
517,vila franca do campo,PT,1558378859,37.72,-25.43,66.2,88,40,12.75
518,vila velha,BR,1558378839,-3.71,-38.6,80.6,83,75,9.17
519,villaviciosa,ES,1558378896,43.48,-5.43,59,71,20,6.93
520,vilyuysk,RU,1558378757,63.75,121.63,34.62,59,16,5.84
521,virginia beach,US,1558378597,36.85,-75.98,91,48,40,10.29
522,vitim,RU,1558378786,59.44,112.57,37.32,83,81,2.98
523,vung tau,VN,1558378714,10.35,107.08,85.2,77,77,10.58
524,waipawa,NZ,1558378879,-39.94,176.59,33.01,93,0,2.64
525,wajima,JP,1558378849,37.4,136.9,63.78,94,100,13.53
526,wawa,NG,1558378872,9.9,4.41,94.92,38,90,4.88
527,west wendover,US,1558378779,40.74,-114.07,51.8,66,40,4.7
528,westport,IE,1558378845,53.8,-9.52,55.99,66,20,9.17
529,wexford,US,1558378845,40.63,-80.06,75.99,53,75,19.46
530,whitehorse,CA,1558378774,60.72,-135.06,64,36,40,3.36
531,xam nua,LA,1558378775,20.42,104.04,67.38,98,100,2.17
532,xichang,CN,1558378771,27.88,102.25,49.74,91,19,2.46
533,xining,CN,1558378797,36.62,101.77,44.7,47,76,1.21
534,yabrud,SY,1558378840,33.97,36.66,80.6,32,0,8.05
535,yakeshi,CN,1558378774,49.28,120.73,46.86,48,100,20.31
536,yamada,JP,1558378789,36.58,137.08,63,93,75,2.24
537,yar-sale,RU,1558378855,66.83,70.83,24.9,90,100,17.43
538,yellowknife,CA,1558378762,62.45,-114.38,55.4,26,75,8.05
539,yichun,CN,1558378781,47.72,128.88,41.64,98,89,3.58
540,yulara,AU,1558378845,-25.24,130.99,62.6,77,20,8.16
541,yumen,CN,1558378785,40.29,97.04,59.1,10,2,1.5
542,zaraza,VE,1558378836,9.35,-65.33,101.04,22,97,8.61
543,zaysan,KZ,1558378879,47.47,84.87,59.46,47,43,10.83
544,zhezkazgan,KZ,1558378887,47.8,67.71,56.04,45,87,13.85
545,zhigansk,RU,1558378765,66.77,123.37,27.24,84,97,8.77
546,zhuhai,CN,1558378755,40.71,112.04,44.6,39,0,4.47
547,zyryanovsk,KZ,1558378588,49.74,84.27,48.84,88,100,1.81
